[{"id":4046255,"name":"Bay Minette","state":"AL","country":"US","coord":{"lon":-87.773048,"lat":30.882959}},{"id":4671654,"name":"Austin","state":"TX","country":"US","coord":{"lon":-97.743057,"lat":30.267151}},{"id":4046274,"name":"Edna","state":"TX","country":"US","coord":{"lon":-96.646088,"lat":28.97859}},{"id":4046319,"name":"Bayou La Batre","state":"AL","country":"US","coord":{"lon":-88.24852,"lat":30.403521}},{"id":4046332,"name":"Henderson","state":"TX","country":"US","coord":{"lon":-94.799377,"lat":32.153221}},{"id":4046430,"name":"Natalia","state":"TX","country":"US","coord":{"lon":-98.862534,"lat":29.18968}},{"id":4046440,"name":"Northrup","state":"TX","country":"US","coord":{"lon":-96.970261,"lat":30.1005}},{"id":4046472,"name":"Primrose","state":"TX","country":"US","coord":{"lon":-97.43335,"lat":32.611519}},{"id":4046499,"name":"Bear Creek","state":"AL","country":"US","coord":{"lon":-87.700577,"lat":34.274818}},{"id":4046704,"name":"Fort Hunt","state":"VA","country":"US","coord":{"lon":-77.058029,"lat":38.732891}},{"id":4046760,"name":"Jack","state":"VA","country":"US","coord":{"lon":-77.509148,"lat":37.196541}},{"id":4046946,"name":"Yorktown","state":"VA","country":"US","coord":{"lon":-76.509666,"lat":37.238762}},{"id":4047191,"name":"Belforest","state":"AL","country":"US","coord":{"lon":-87.852493,"lat":30.6038}},{"id":4047198,"name":"Brighton","state":"AL","country":"US","coord":{"lon":-86.947212,"lat":33.43428}},{"id":4047434,"name":"Russell County","state":"AL","country":"US","coord":{"lon":-85.199944,"lat":32.350151}},{"id":4047656,"name":"Provo","state":"AR","country":"US","coord":{"lon":-94.107697,"lat":34.037609}},{"id":4047734,"name":"Ocean View","state":"DE","country":"US","coord":{"lon":-75.089073,"lat":38.545109}},{"id":4047827,"name":"Berry","state":"AL","country":"US","coord":{"lon":-87.600014,"lat":33.659828}},{"id":4047906,"name":"Trinity","state":"FL","country":"US","coord":{"lon":-82.68177,"lat":28.180849}},{"id":4047914,"name":"Villas","state":"FL","country":"US","coord":{"lon":-81.868698,"lat":26.55035}},{"id":4048023,"name":"Bessemer","state":"AL","country":"US","coord":{"lon":-86.954437,"lat":33.401779}},{"id":4048332,"name":"Aurora","state":"IN","country":"US","coord":{"lon":-84.901337,"lat":39.056999}},{"id":4048388,"name":"New Pekin","state":"IN","country":"US","coord":{"lon":-86.016922,"lat":38.505058}},{"id":4048488,"name":"Stockton","state":"KS","country":"US","coord":{"lon":-99.265099,"lat":39.438068}},{"id":4048522,"name":"Boone County","state":"KY","country":"US","coord":{"lon":-84.633278,"lat":38.86673}},{"id":4048572,"name":"Rowan County","state":"KY","country":"US","coord":{"lon":-83.433243,"lat":38.183411}},{"id":4048662,"name":"Paducah","state":"KY","country":"US","coord":{"lon":-88.600052,"lat":37.083389}},{"id":4048706,"name":"Stricklett","state":"KY","country":"US","coord":{"lon":-83.387413,"lat":38.48452}},{"id":4048850,"name":"Monticello","state":"LA","country":"US","coord":{"lon":-91.393997,"lat":32.596531}},{"id":4048888,"name":"Red Chute","state":"LA","country":"US","coord":{"lon":-93.613228,"lat":32.555981}},{"id":4049032,"name":"Jessup","state":"MD","country":"US","coord":{"lon":-76.775253,"lat":39.149269}},{"id":4049176,"name":"Chandler","state":"MO","country":"US","coord":{"lon":-94.382729,"lat":39.300282}},{"id":4049979,"name":"Birmingham","state":"AL","country":"US","coord":{"lon":-86.80249,"lat":33.52066}},{"id":4050006,"name":"Delhi Hills","state":"OH","country":"US","coord":{"lon":-84.612717,"lat":39.092838}},{"id":4050118,"name":"Turpin Hills","state":"OH","country":"US","coord":{"lon":-84.379936,"lat":39.110062}},{"id":4050283,"name":"Blackburn","state":"AL","country":"US","coord":{"lon":-87.646141,"lat":34.93092}},{"id":4050356,"name":"Lugoff","state":"SC","country":"US","coord":{"lon":-80.689247,"lat":34.227371}},{"id":4050633,"name":"Blount County","state":"AL","country":"US","coord":{"lon":-86.583321,"lat":33.96677}},{"id":4050655,"name":"Blountsville","state":"AL","country":"US","coord":{"lon":-86.591103,"lat":34.08149}},{"id":4050879,"name":"Blue Ridge","state":"AL","country":"US","coord":{"lon":-86.190521,"lat":32.492641}},{"id":4050880,"name":"Buda","state":"TX","country":"US","coord":{"lon":-97.840279,"lat":30.085211}},{"id":4050961,"name":"Blue Springs","state":"AL","country":"US","coord":{"lon":-86.54277,"lat":34.126492}},{"id":4051059,"name":"Boaz","state":"AL","country":"US","coord":{"lon":-86.166367,"lat":34.200649}},{"id":4051669,"name":"Brent","state":"AL","country":"US","coord":{"lon":-87.164719,"lat":32.937351}},{"id":4051680,"name":"Brewer Estates","state":"AL","country":"US","coord":{"lon":-86.390251,"lat":32.311249}},{"id":4051714,"name":"Brewton","state":"AL","country":"US","coord":{"lon":-87.072189,"lat":31.105181}},{"id":4051742,"name":"Brickdale Estates","state":"AL","country":"US","coord":{"lon":-86.362747,"lat":32.361809}},{"id":4051774,"name":"Bridgeport","state":"AL","country":"US","coord":{"lon":-85.714417,"lat":34.947578}},{"id":4051894,"name":"Brook Highland","state":"AL","country":"US","coord":{"lon":-86.673882,"lat":33.435661}},{"id":4051955,"name":"Brookside","state":"AL","country":"US","coord":{"lon":-86.916656,"lat":33.637878}},{"id":4051971,"name":"Brookwood","state":"AL","country":"US","coord":{"lon":-87.320831,"lat":33.255669}},{"id":4052177,"name":"Brundidge","state":"AL","country":"US","coord":{"lon":-85.816063,"lat":31.72016}},{"id":4052497,"name":"Bullock County","state":"AL","country":"US","coord":{"lon":-85.699951,"lat":32.066818}},{"id":4052726,"name":"Butler","state":"AL","country":"US","coord":{"lon":-88.22197,"lat":32.089588}},{"id":4052824,"name":"Bynum","state":"AL","country":"US","coord":{"lon":-85.961082,"lat":33.613159}},{"id":4052923,"name":"Caddo","state":"AL","country":"US","coord":{"lon":-87.140007,"lat":34.56926}},{"id":4052964,"name":"Cahaba Heights","state":"AL","country":"US","coord":{"lon":-86.731934,"lat":33.464001}},{"id":4053050,"name":"Calera","state":"AL","country":"US","coord":{"lon":-86.753601,"lat":33.102901}},{"id":4053062,"name":"Calhoun County","state":"AL","country":"US","coord":{"lon":-85.849968,"lat":33.750381}},{"id":4053200,"name":"Camden","state":"AL","country":"US","coord":{"lon":-87.29055,"lat":31.99098}},{"id":4053318,"name":"Camp Hill","state":"AL","country":"US","coord":{"lon":-85.653572,"lat":32.800411}},{"id":4053671,"name":"Carbon Hill","state":"AL","country":"US","coord":{"lon":-87.526123,"lat":33.891769}},{"id":4053823,"name":"Carrollton","state":"AL","country":"US","coord":{"lon":-88.095032,"lat":33.261791}},{"id":4053940,"name":"Castleberry","state":"AL","country":"US","coord":{"lon":-87.022469,"lat":31.299061}},{"id":4053988,"name":"Catoma","state":"AL","country":"US","coord":{"lon":-86.433578,"lat":32.313469}},{"id":4054073,"name":"Cedar Bluff","state":"AL","country":"US","coord":{"lon":-85.607742,"lat":34.220089}},{"id":4054378,"name":"Center Point","state":"AL","country":"US","coord":{"lon":-86.683601,"lat":33.64566}},{"id":4054555,"name":"Centre","state":"AL","country":"US","coord":{"lon":-85.678848,"lat":34.152039}},{"id":4054566,"name":"Centreville","state":"AL","country":"US","coord":{"lon":-87.138611,"lat":32.944569}},{"id":4054593,"name":"Chalkville","state":"AL","country":"US","coord":{"lon":-86.647774,"lat":33.65316}},{"id":4054818,"name":"Chatom","state":"AL","country":"US","coord":{"lon":-88.254463,"lat":31.46517}},{"id":4054852,"name":"Chelsea","state":"AL","country":"US","coord":{"lon":-86.630257,"lat":33.340111}},{"id":4054866,"name":"Cherokee","state":"AL","country":"US","coord":{"lon":-87.972809,"lat":34.75703}},{"id":4054996,"name":"Chickasaw","state":"AL","country":"US","coord":{"lon":-88.074722,"lat":30.7638}},{"id":4055045,"name":"Childersburg","state":"AL","country":"US","coord":{"lon":-86.35498,"lat":33.278172}},{"id":4055139,"name":"Choccolocco","state":"AL","country":"US","coord":{"lon":-85.703568,"lat":33.659271}},{"id":4055298,"name":"Chunnenuggee","state":"AL","country":"US","coord":{"lon":-85.643562,"lat":32.15654}},{"id":4055535,"name":"Citronelle","state":"AL","country":"US","coord":{"lon":-88.228058,"lat":31.090731}},{"id":4055577,"name":"Clanton","state":"AL","country":"US","coord":{"lon":-86.629433,"lat":32.838741}},{"id":4055650,"name":"Clay","state":"AL","country":"US","coord":{"lon":-86.599709,"lat":33.702599}},{"id":4055696,"name":"Clayton","state":"AL","country":"US","coord":{"lon":-85.449661,"lat":31.87822}},{"id":4055815,"name":"Cleveland","state":"AL","country":"US","coord":{"lon":-86.577492,"lat":33.990929}},{"id":4055879,"name":"Clio","state":"AL","country":"US","coord":{"lon":-85.610497,"lat":31.70878}},{"id":4056017,"name":"Coaling","state":"AL","country":"US","coord":{"lon":-87.340828,"lat":33.159012}},{"id":4056099,"name":"Coffee County","state":"AL","country":"US","coord":{"lon":-86.000221,"lat":31.41683}},{"id":4056165,"name":"Colbert County","state":"AL","country":"US","coord":{"lon":-87.816704,"lat":34.683418}},{"id":4056381,"name":"Collinsville","state":"AL","country":"US","coord":{"lon":-85.860527,"lat":34.263981}},{"id":4056427,"name":"Columbiana","state":"AL","country":"US","coord":{"lon":-86.607208,"lat":33.178169}},{"id":4056515,"name":"Concord","state":"AL","country":"US","coord":{"lon":-87.031113,"lat":33.467609}},{"id":4056592,"name":"Conecuh County","state":"AL","country":"US","coord":{"lon":-86.983307,"lat":31.466829}},{"id":4056837,"name":"Coosada","state":"AL","country":"US","coord":{"lon":-86.33136,"lat":32.49791}},{"id":4056920,"name":"Cordova","state":"AL","country":"US","coord":{"lon":-87.183327,"lat":33.75983}},{"id":4057139,"name":"Cottonwood","state":"AL","country":"US","coord":{"lon":-85.304932,"lat":31.04879}},{"id":4057296,"name":"Covington County","state":"AL","country":"US","coord":{"lon":-86.449959,"lat":31.26684}},{"id":4057320,"name":"Cowarts","state":"AL","country":"US","coord":{"lon":-85.304649,"lat":31.20018}},{"id":4057493,"name":"Creek Stand","state":"AL","country":"US","coord":{"lon":-85.477448,"lat":32.29459}},{"id":4057517,"name":"Crenshaw County","state":"AL","country":"US","coord":{"lon":-86.316628,"lat":31.73349}},{"id":4057531,"name":"Creola","state":"AL","country":"US","coord":{"lon":-88.039719,"lat":30.89185}},{"id":4057731,"name":"Crossville","state":"AL","country":"US","coord":{"lon":-85.994141,"lat":34.28759}},{"id":4057835,"name":"Cullman","state":"AL","country":"US","coord":{"lon":-86.843613,"lat":34.17482}},{"id":4057881,"name":"Cumberland Mountain Farm Colony (historical)","state":"AL","country":"US","coord":{"lon":-86.116653,"lat":34.795921}},{"id":4058027,"name":"Dadeville","state":"AL","country":"US","coord":{"lon":-85.763573,"lat":32.831242}},{"id":4058052,"name":"Dale County","state":"AL","country":"US","coord":{"lon":-85.64994,"lat":31.450171}},{"id":4058061,"name":"Daleville","state":"AL","country":"US","coord":{"lon":-85.71299,"lat":31.310169}},{"id":4058076,"name":"Dallas County","state":"AL","country":"US","coord":{"lon":-87.083321,"lat":32.333469}},{"id":4058198,"name":"Danville","state":"AL","country":"US","coord":{"lon":-87.087509,"lat":34.414539}},{"id":4058219,"name":"Daphne","state":"AL","country":"US","coord":{"lon":-87.903603,"lat":30.603531}},{"id":4058262,"name":"Dauphin Island","state":"AL","country":"US","coord":{"lon":-88.109718,"lat":30.25548}},{"id":4058479,"name":"DeKalb County","state":"AL","country":"US","coord":{"lon":-85.783302,"lat":34.450089}},{"id":4058543,"name":"Deatsville","state":"AL","country":"US","coord":{"lon":-86.395813,"lat":32.608189}},{"id":4058550,"name":"Debardeleben","state":"AL","country":"US","coord":{"lon":-87.005547,"lat":33.79594}},{"id":4058553,"name":"Decatur","state":"AL","country":"US","coord":{"lon":-86.983337,"lat":34.60593}},{"id":4058662,"name":"Demopolis","state":"AL","country":"US","coord":{"lon":-87.836403,"lat":32.517639}},{"id":4058740,"name":"Detroit Park","state":"AL","country":"US","coord":{"lon":-87.618919,"lat":34.757309}},{"id":4059070,"name":"Dora","state":"AL","country":"US","coord":{"lon":-87.090279,"lat":33.728722}},{"id":4059102,"name":"Dothan","state":"AL","country":"US","coord":{"lon":-85.390488,"lat":31.22323}},{"id":4059162,"name":"Double Springs","state":"AL","country":"US","coord":{"lon":-87.402237,"lat":34.146488}},{"id":4059171,"name":"Douglas","state":"AL","country":"US","coord":{"lon":-85.728577,"lat":34.427029}},{"id":4059229,"name":"Dozier","state":"AL","country":"US","coord":{"lon":-86.36496,"lat":31.492109}},{"id":4059831,"name":"East Brewton","state":"AL","country":"US","coord":{"lon":-87.062752,"lat":31.093229}},{"id":4059870,"name":"East Florence","state":"AL","country":"US","coord":{"lon":-87.649467,"lat":34.809528}},{"id":4060038,"name":"Eastwood","state":"AL","country":"US","coord":{"lon":-87.753052,"lat":30.890739}},{"id":4060176,"name":"Eclectic","state":"AL","country":"US","coord":{"lon":-86.034409,"lat":32.63541}},{"id":4060381,"name":"Elberta","state":"AL","country":"US","coord":{"lon":-87.597763,"lat":30.41436}},{"id":4060791,"name":"Enterprise","state":"AL","country":"US","coord":{"lon":-85.855217,"lat":31.31517}},{"id":4060870,"name":"Escambia County","state":"AL","country":"US","coord":{"lon":-87.149971,"lat":31.150181}},{"id":4060938,"name":"Etowah County","state":"AL","country":"US","coord":{"lon":-86.049973,"lat":34.066761}},{"id":4060954,"name":"Eufaula","state":"AL","country":"US","coord":{"lon":-85.145493,"lat":31.89127}},{"id":4060991,"name":"Eutaw","state":"AL","country":"US","coord":{"lon":-87.887512,"lat":32.840679}},{"id":4061064,"name":"Evergreen","state":"AL","country":"US","coord":{"lon":-86.956917,"lat":31.4335}},{"id":4061206,"name":"Fairfield","state":"AL","country":"US","coord":{"lon":-86.911942,"lat":33.485939}},{"id":4061234,"name":"Fairhope","state":"AL","country":"US","coord":{"lon":-87.903328,"lat":30.52297}},{"id":4061466,"name":"Falkville","state":"AL","country":"US","coord":{"lon":-86.908623,"lat":34.368431}},{"id":4061586,"name":"Fayette","state":"AL","country":"US","coord":{"lon":-87.830849,"lat":33.684551}},{"id":4061590,"name":"Fayette County","state":"AL","country":"US","coord":{"lon":-87.716682,"lat":33.73344}},{"id":4061602,"name":"Fayetteville","state":"AL","country":"US","coord":{"lon":-86.405807,"lat":33.145672}},{"id":4062523,"name":"Flint City","state":"AL","country":"US","coord":{"lon":-86.970291,"lat":34.523151}},{"id":4062568,"name":"Florala","state":"AL","country":"US","coord":{"lon":-86.328003,"lat":31.00518}},{"id":4062577,"name":"Florence","state":"AL","country":"US","coord":{"lon":-87.677254,"lat":34.799809}},{"id":4062595,"name":"Flomaton","state":"AL","country":"US","coord":{"lon":-87.260811,"lat":31.000179}},{"id":4062644,"name":"Foley","state":"AL","country":"US","coord":{"lon":-87.683601,"lat":30.40659}},{"id":4062774,"name":"Forestdale","state":"AL","country":"US","coord":{"lon":-86.896378,"lat":33.57011}},{"id":4062824,"name":"Fort Deposit","state":"AL","country":"US","coord":{"lon":-86.57859,"lat":31.984591}},{"id":4062861,"name":"Fort Payne","state":"AL","country":"US","coord":{"lon":-85.719688,"lat":34.444248}},{"id":4063475,"name":"Frisco City","state":"AL","country":"US","coord":{"lon":-87.401382,"lat":31.4335}},{"id":4063570,"name":"Fultondale","state":"AL","country":"US","coord":{"lon":-86.793877,"lat":33.604832}},{"id":4063613,"name":"Fyffe","state":"AL","country":"US","coord":{"lon":-85.904137,"lat":34.446758}},{"id":4063619,"name":"Gadsden","state":"AL","country":"US","coord":{"lon":-86.006638,"lat":34.014259}},{"id":4063745,"name":"Gantts Quarry","state":"AL","country":"US","coord":{"lon":-86.289421,"lat":33.148449}},{"id":4063765,"name":"Gardendale","state":"AL","country":"US","coord":{"lon":-86.812767,"lat":33.660099}},{"id":4063926,"name":"Geneva","state":"AL","country":"US","coord":{"lon":-85.863823,"lat":31.032961}},{"id":4064006,"name":"Georgiana","state":"AL","country":"US","coord":{"lon":-86.74192,"lat":31.6371}},{"id":4064310,"name":"Glencoe","state":"AL","country":"US","coord":{"lon":-85.932472,"lat":33.957039}},{"id":4064548,"name":"Good Hope","state":"AL","country":"US","coord":{"lon":-86.863609,"lat":34.115929}},{"id":4064598,"name":"Goodwater","state":"AL","country":"US","coord":{"lon":-86.053299,"lat":33.065681}},{"id":4064664,"name":"Gordo","state":"AL","country":"US","coord":{"lon":-87.902802,"lat":33.320122}},{"id":4064840,"name":"Grand Bay","state":"AL","country":"US","coord":{"lon":-88.342232,"lat":30.476311}},{"id":4065029,"name":"Grayson Valley","state":"AL","country":"US","coord":{"lon":-86.639427,"lat":33.648159}},{"id":4065034,"name":"Graysville","state":"AL","country":"US","coord":{"lon":-86.971382,"lat":33.620659}},{"id":4065282,"name":"Greensboro","state":"AL","country":"US","coord":{"lon":-87.59584,"lat":32.704578}},{"id":4065302,"name":"Greenville","state":"AL","country":"US","coord":{"lon":-86.617752,"lat":31.829599}},{"id":4065475,"name":"Grove Hill","state":"AL","country":"US","coord":{"lon":-87.777222,"lat":31.708771}},{"id":4065524,"name":"Guin","state":"AL","country":"US","coord":{"lon":-87.914749,"lat":33.96566}},{"id":4065552,"name":"Gulf Shores","state":"AL","country":"US","coord":{"lon":-87.700821,"lat":30.24604}},{"id":4065627,"name":"Gumbud","state":"AL","country":"US","coord":{"lon":-87.805573,"lat":33.630669}},{"id":4065649,"name":"Guntersville","state":"AL","country":"US","coord":{"lon":-86.294701,"lat":34.35815}},{"id":4065731,"name":"Hackleburg","state":"AL","country":"US","coord":{"lon":-87.828644,"lat":34.277321}},{"id":4065796,"name":"Hale County","state":"AL","country":"US","coord":{"lon":-87.633339,"lat":32.758739}},{"id":4065830,"name":"Haleyville","state":"AL","country":"US","coord":{"lon":-87.621407,"lat":34.22649}},{"id":4065965,"name":"Hamilton","state":"AL","country":"US","coord":{"lon":-87.98864,"lat":34.142319}},{"id":4066045,"name":"Hamner Estates","state":"AL","country":"US","coord":{"lon":-87.548622,"lat":33.277889}},{"id":4066065,"name":"Hanceville","state":"AL","country":"US","coord":{"lon":-86.767502,"lat":34.06065}},{"id":4066335,"name":"Harpersville","state":"AL","country":"US","coord":{"lon":-86.438042,"lat":33.344002}},{"id":4066409,"name":"Harris Station","state":"AL","country":"US","coord":{"lon":-86.970291,"lat":34.658699}},{"id":4066437,"name":"Hartford","state":"AL","country":"US","coord":{"lon":-85.696877,"lat":31.1024}},{"id":4066449,"name":"Hartselle","state":"AL","country":"US","coord":{"lon":-86.93528,"lat":34.443432}},{"id":4066463,"name":"Harvest","state":"AL","country":"US","coord":{"lon":-86.750832,"lat":34.85564}},{"id":4066566,"name":"Havana","state":"AL","country":"US","coord":{"lon":-87.620293,"lat":32.89513}},{"id":4066661,"name":"Hayneville","state":"AL","country":"US","coord":{"lon":-86.580254,"lat":32.184029}},{"id":4066686,"name":"Hazel Green","state":"AL","country":"US","coord":{"lon":-86.571938,"lat":34.932308}},{"id":4066716,"name":"Headland","state":"AL","country":"US","coord":{"lon":-85.342163,"lat":31.35128}},{"id":4066793,"name":"Heflin","state":"AL","country":"US","coord":{"lon":-85.587463,"lat":33.648991}},{"id":4066811,"name":"Helena","state":"AL","country":"US","coord":{"lon":-86.843597,"lat":33.296219}},{"id":4066844,"name":"Henagar","state":"AL","country":"US","coord":{"lon":-85.767189,"lat":34.635078}},{"id":4067623,"name":"Hokes Bluff","state":"AL","country":"US","coord":{"lon":-85.866364,"lat":33.99815}},{"id":4067840,"name":"Holt","state":"AL","country":"US","coord":{"lon":-87.484451,"lat":33.234009}},{"id":4067862,"name":"Holtville","state":"AL","country":"US","coord":{"lon":-86.326637,"lat":32.636238}},{"id":4067927,"name":"Homewood","state":"AL","country":"US","coord":{"lon":-86.800819,"lat":33.471771}},{"id":4067994,"name":"Hoover","state":"AL","country":"US","coord":{"lon":-86.811378,"lat":33.405392}},{"id":4068296,"name":"Houston County","state":"AL","country":"US","coord":{"lon":-85.316597,"lat":31.150181}},{"id":4068415,"name":"Huckaville","state":"AL","country":"US","coord":{"lon":-86.416061,"lat":31.07962}},{"id":4068446,"name":"Hueytown","state":"AL","country":"US","coord":{"lon":-86.996658,"lat":33.451221}},{"id":4068506,"name":"Huguley","state":"AL","country":"US","coord":{"lon":-85.22966,"lat":32.834572}},{"id":4068546,"name":"Hunter","state":"AL","country":"US","coord":{"lon":-86.395531,"lat":32.395691}},{"id":4068590,"name":"Huntsville","state":"AL","country":"US","coord":{"lon":-86.586098,"lat":34.73037}},{"id":4068770,"name":"Hyram","state":"AL","country":"US","coord":{"lon":-85.248001,"lat":32.352921}},{"id":4068882,"name":"Indian Hills","state":"AL","country":"US","coord":{"lon":-85.424393,"lat":32.610409}},{"id":4068933,"name":"Indian Springs Village","state":"AL","country":"US","coord":{"lon":-86.754433,"lat":33.355389}},{"id":4069210,"name":"Inverness","state":"AL","country":"US","coord":{"lon":-85.746063,"lat":32.014881}},{"id":4069243,"name":"Irondale","state":"AL","country":"US","coord":{"lon":-86.707207,"lat":33.538158}},{"id":4069259,"name":"Irvington","state":"AL","country":"US","coord":{"lon":-86.929169,"lat":34.639809}},{"id":4069458,"name":"Jackson","state":"AL","country":"US","coord":{"lon":-87.89444,"lat":31.50905}},{"id":4069472,"name":"Jackson County","state":"AL","country":"US","coord":{"lon":-86.000259,"lat":34.76675}},{"id":4069553,"name":"Jacksonville","state":"AL","country":"US","coord":{"lon":-85.761353,"lat":33.813709}},{"id":4069659,"name":"Jasper","state":"AL","country":"US","coord":{"lon":-87.277512,"lat":33.831219}},{"id":4069696,"name":"Jefferson County","state":"AL","country":"US","coord":{"lon":-86.866661,"lat":33.583439}},{"id":4069722,"name":"Jemison","state":"AL","country":"US","coord":{"lon":-86.746651,"lat":32.95985}},{"id":4070245,"name":"Jones Crossroads","state":"AL","country":"US","coord":{"lon":-85.484657,"lat":31.21073}},{"id":4070315,"name":"Jonesville","state":"AL","country":"US","coord":{"lon":-85.904121,"lat":31.893209}},{"id":4070512,"name":"Keel (historical)","state":"AL","country":"US","coord":{"lon":-86.307762,"lat":34.51675}},{"id":4070786,"name":"Killen","state":"AL","country":"US","coord":{"lon":-87.537529,"lat":34.862862}},{"id":4070806,"name":"Kimberly","state":"AL","country":"US","coord":{"lon":-86.813881,"lat":33.773441}},{"id":4070978,"name":"Kingsway Terrace","state":"AL","country":"US","coord":{"lon":-86.744164,"lat":33.562599}},{"id":4070997,"name":"Kinsey","state":"AL","country":"US","coord":{"lon":-85.344383,"lat":31.299061}},{"id":4071032,"name":"Kirkland","state":"AL","country":"US","coord":{"lon":-87.030533,"lat":31.188511}},{"id":4071262,"name":"Ladonia","state":"AL","country":"US","coord":{"lon":-85.079102,"lat":32.468201}},{"id":4071267,"name":"Lafayette","state":"AL","country":"US","coord":{"lon":-85.401062,"lat":32.899849}},{"id":4071488,"name":"Lake Purdy","state":"AL","country":"US","coord":{"lon":-86.680542,"lat":33.430111}},{"id":4071540,"name":"Lake View","state":"AL","country":"US","coord":{"lon":-87.137497,"lat":33.28067}},{"id":4071676,"name":"Lamar County","state":"AL","country":"US","coord":{"lon":-88.116699,"lat":33.751781}},{"id":4071763,"name":"Lanett","state":"AL","country":"US","coord":{"lon":-85.190498,"lat":32.86874}},{"id":4071898,"name":"Lauderdale County","state":"AL","country":"US","coord":{"lon":-87.633362,"lat":34.900089}},{"id":4071959,"name":"Lawrence County","state":"AL","country":"US","coord":{"lon":-87.333351,"lat":34.533428}},{"id":4072098,"name":"Lee County","state":"AL","country":"US","coord":{"lon":-85.399948,"lat":32.60014}},{"id":4072130,"name":"Leeds","state":"AL","country":"US","coord":{"lon":-86.544434,"lat":33.548161}},{"id":4072156,"name":"Leesburg","state":"AL","country":"US","coord":{"lon":-85.76136,"lat":34.179821}},{"id":4072271,"name":"Level Plains","state":"AL","country":"US","coord":{"lon":-85.777992,"lat":31.29962}},{"id":4072707,"name":"Limestone County","state":"AL","country":"US","coord":{"lon":-86.983337,"lat":34.800091}},{"id":4072752,"name":"Linden","state":"AL","country":"US","coord":{"lon":-87.798073,"lat":32.306252}},{"id":4072767,"name":"Lincoln","state":"AL","country":"US","coord":{"lon":-86.118309,"lat":33.613159}},{"id":4072814,"name":"Lineville","state":"AL","country":"US","coord":{"lon":-85.75441,"lat":33.310669}},{"id":4072842,"name":"Lipscomb","state":"AL","country":"US","coord":{"lon":-86.926659,"lat":33.425659}},{"id":4073357,"name":"Littleville","state":"AL","country":"US","coord":{"lon":-87.676971,"lat":34.590649}},{"id":4073383,"name":"Livingston","state":"AL","country":"US","coord":{"lon":-88.187248,"lat":32.584301}},{"id":4073490,"name":"Locke Crossroads","state":"AL","country":"US","coord":{"lon":-86.951668,"lat":34.935638}},{"id":4073504,"name":"Locust Fork","state":"AL","country":"US","coord":{"lon":-86.615273,"lat":33.9076}},{"id":4073897,"name":"Loxley","state":"AL","country":"US","coord":{"lon":-87.753052,"lat":30.61825}},{"id":4073985,"name":"Luverne","state":"AL","country":"US","coord":{"lon":-86.263847,"lat":31.716551}},{"id":4074246,"name":"Macon County","state":"AL","country":"US","coord":{"lon":-85.81662,"lat":32.400139}},{"id":4074267,"name":"Madison","state":"AL","country":"US","coord":{"lon":-86.748329,"lat":34.699261}},{"id":4074277,"name":"Madison County","state":"AL","country":"US","coord":{"lon":-86.566658,"lat":34.733421}},{"id":4074452,"name":"Malvern","state":"AL","country":"US","coord":{"lon":-85.519096,"lat":31.139339}},{"id":4074568,"name":"Marbury","state":"AL","country":"US","coord":{"lon":-86.471092,"lat":32.701241}},{"id":4074599,"name":"Margaret","state":"AL","country":"US","coord":{"lon":-86.474983,"lat":33.686211}},{"id":4074628,"name":"Mariners Cove","state":"AL","country":"US","coord":{"lon":-87.509727,"lat":33.295952}},{"id":4074636,"name":"Marion County","state":"AL","country":"US","coord":{"lon":-87.866699,"lat":34.13343}},{"id":4074673,"name":"Marion","state":"AL","country":"US","coord":{"lon":-87.319168,"lat":32.632351}},{"id":4074736,"name":"Marshall County","state":"AL","country":"US","coord":{"lon":-86.333321,"lat":34.383419}},{"id":4075337,"name":"McCullough","state":"AL","country":"US","coord":{"lon":-87.526367,"lat":31.16684}},{"id":4075692,"name":"Meadowbrook","state":"AL","country":"US","coord":{"lon":-86.696648,"lat":33.40205}},{"id":4075854,"name":"Meridianville","state":"AL","country":"US","coord":{"lon":-86.57222,"lat":34.851479}},{"id":4075977,"name":"Midfield","state":"AL","country":"US","coord":{"lon":-86.908882,"lat":33.461498}},{"id":4075984,"name":"Midland City","state":"AL","country":"US","coord":{"lon":-85.49382,"lat":31.319059}},{"id":4076066,"name":"Mignon","state":"AL","country":"US","coord":{"lon":-86.261093,"lat":33.183449}},{"id":4076239,"name":"Millbrook","state":"AL","country":"US","coord":{"lon":-86.361923,"lat":32.479858}},{"id":4076358,"name":"Millport","state":"AL","country":"US","coord":{"lon":-88.081421,"lat":33.56345}},{"id":4076468,"name":"Minor","state":"AL","country":"US","coord":{"lon":-86.940552,"lat":33.537331}},{"id":4076598,"name":"Mobile","state":"AL","country":"US","coord":{"lon":-88.043053,"lat":30.694361}},{"id":4076607,"name":"Mobile County","state":"AL","country":"US","coord":{"lon":-88.199997,"lat":30.78352}},{"id":4076725,"name":"Monroeville","state":"AL","country":"US","coord":{"lon":-87.324707,"lat":31.527941}},{"id":4076771,"name":"Montevallo","state":"AL","country":"US","coord":{"lon":-86.864159,"lat":33.10067}},{"id":4076784,"name":"Montgomery","state":"AL","country":"US","coord":{"lon":-86.299973,"lat":32.36681}},{"id":4076795,"name":"Montgomery County","state":"AL","country":"US","coord":{"lon":-86.233299,"lat":32.233479}},{"id":4076842,"name":"Moody","state":"AL","country":"US","coord":{"lon":-86.490822,"lat":33.590939}},{"id":4076958,"name":"Moore Town","state":"AL","country":"US","coord":{"lon":-88.106972,"lat":32.550968}},{"id":4076982,"name":"Moores Mill","state":"AL","country":"US","coord":{"lon":-86.518318,"lat":34.843979}},{"id":4077029,"name":"Morgan County","state":"AL","country":"US","coord":{"lon":-86.849998,"lat":34.450089}},{"id":4077143,"name":"Morris","state":"AL","country":"US","coord":{"lon":-86.808601,"lat":33.748161}},{"id":4077283,"name":"Mosses","state":"AL","country":"US","coord":{"lon":-86.671921,"lat":32.174591}},{"id":4077329,"name":"Moulton","state":"AL","country":"US","coord":{"lon":-87.29335,"lat":34.481209}},{"id":4077349,"name":"Moundville","state":"AL","country":"US","coord":{"lon":-87.630013,"lat":32.99762}},{"id":4077655,"name":"Mount Hester","state":"AL","country":"US","coord":{"lon":-88.011978,"lat":34.72842}},{"id":4077867,"name":"Mount Olive","state":"AL","country":"US","coord":{"lon":-86.856102,"lat":33.67094}},{"id":4078348,"name":"Mount Vernon","state":"AL","country":"US","coord":{"lon":-88.013329,"lat":31.08518}},{"id":4078646,"name":"Mountain Brook","state":"AL","country":"US","coord":{"lon":-86.752213,"lat":33.500938}},{"id":4078898,"name":"Munford","state":"AL","country":"US","coord":{"lon":-85.950798,"lat":33.529831}},{"id":4078964,"name":"Muscle Shoals","state":"AL","country":"US","coord":{"lon":-87.667526,"lat":34.744808}},{"id":4079080,"name":"Napier Field","state":"AL","country":"US","coord":{"lon":-85.454102,"lat":31.315451}},{"id":4079423,"name":"New Brockton","state":"AL","country":"US","coord":{"lon":-85.92939,"lat":31.385719}},{"id":4079630,"name":"New Hope","state":"AL","country":"US","coord":{"lon":-86.394432,"lat":34.537029}},{"id":4079916,"name":"New Market","state":"AL","country":"US","coord":{"lon":-86.427773,"lat":34.910091}},{"id":4080193,"name":"Newton","state":"AL","country":"US","coord":{"lon":-85.605209,"lat":31.335171}},{"id":4080395,"name":"North Bibb","state":"AL","country":"US","coord":{"lon":-87.153053,"lat":33.20401}},{"id":4080506,"name":"North Ridge Mobile Home Park","state":"AL","country":"US","coord":{"lon":-85.999672,"lat":31.8571}},{"id":4080555,"name":"Northport","state":"AL","country":"US","coord":{"lon":-87.577232,"lat":33.229012}},{"id":4081166,"name":"Odenville","state":"AL","country":"US","coord":{"lon":-86.396652,"lat":33.677319}},{"id":4081197,"name":"Ohatchee","state":"AL","country":"US","coord":{"lon":-86.002472,"lat":33.783428}},{"id":4081309,"name":"Old Eastaboga","state":"AL","country":"US","coord":{"lon":-86.021637,"lat":33.586491}},{"id":4081644,"name":"Opelika","state":"AL","country":"US","coord":{"lon":-85.378281,"lat":32.645409}},{"id":4081671,"name":"Oneonta","state":"AL","country":"US","coord":{"lon":-86.472763,"lat":33.948151}},{"id":4081683,"name":"Opp","state":"AL","country":"US","coord":{"lon":-86.255508,"lat":31.282669}},{"id":4081696,"name":"Orange Beach","state":"AL","country":"US","coord":{"lon":-87.573593,"lat":30.294371}},{"id":4081904,"name":"Owens Cross Roads","state":"AL","country":"US","coord":{"lon":-86.458878,"lat":34.58815}},{"id":4081914,"name":"Oxford","state":"AL","country":"US","coord":{"lon":-85.834961,"lat":33.614269}},{"id":4081936,"name":"Ozark","state":"AL","country":"US","coord":{"lon":-85.640488,"lat":31.459061}},{"id":4082569,"name":"Pelham","state":"AL","country":"US","coord":{"lon":-86.80999,"lat":33.285671}},{"id":4082589,"name":"Pell City","state":"AL","country":"US","coord":{"lon":-86.286087,"lat":33.586208}},{"id":4082678,"name":"Pepperell","state":"AL","country":"US","coord":{"lon":-85.420502,"lat":32.63541}},{"id":4082866,"name":"Phenix City","state":"AL","country":"US","coord":{"lon":-85.000771,"lat":32.470982}},{"id":4082869,"name":"Phil Campbell","state":"AL","country":"US","coord":{"lon":-87.706421,"lat":34.350929}},{"id":4082974,"name":"Pickens County","state":"AL","country":"US","coord":{"lon":-88.083359,"lat":33.283451}},{"id":4083004,"name":"Piedmont","state":"AL","country":"US","coord":{"lon":-85.611351,"lat":33.924549}},{"id":4083063,"name":"Pike County","state":"AL","country":"US","coord":{"lon":-85.949951,"lat":31.81682}},{"id":4083073,"name":"Pike Road","state":"AL","country":"US","coord":{"lon":-86.10302,"lat":32.284309}},{"id":4083414,"name":"Pine Level","state":"AL","country":"US","coord":{"lon":-86.46553,"lat":32.58374}},{"id":4083697,"name":"Pinson","state":"AL","country":"US","coord":{"lon":-86.683319,"lat":33.688992}},{"id":4083846,"name":"Pleasant Grove","state":"AL","country":"US","coord":{"lon":-86.970268,"lat":33.49094}},{"id":4084147,"name":"Pleasant Ridge","state":"AL","country":"US","coord":{"lon":-87.990593,"lat":34.171768}},{"id":4084324,"name":"Point Clear","state":"AL","country":"US","coord":{"lon":-87.919159,"lat":30.474079}},{"id":4084796,"name":"Prattville","state":"AL","country":"US","coord":{"lon":-86.459702,"lat":32.46402}},{"id":4084883,"name":"Priceville","state":"AL","country":"US","coord":{"lon":-86.89473,"lat":34.525089}},{"id":4084888,"name":"Prichard","state":"AL","country":"US","coord":{"lon":-88.078888,"lat":30.7388}},{"id":4085311,"name":"Ragland","state":"AL","country":"US","coord":{"lon":-86.155807,"lat":33.744541}},{"id":4085336,"name":"Rainbow City","state":"AL","country":"US","coord":{"lon":-86.041924,"lat":33.954819}},{"id":4085373,"name":"Rainsville","state":"AL","country":"US","coord":{"lon":-85.847748,"lat":34.494251}},{"id":4085392,"name":"Ramer","state":"AL","country":"US","coord":{"lon":-86.221352,"lat":32.05043}},{"id":4085521,"name":"Red Bay","state":"AL","country":"US","coord":{"lon":-88.140869,"lat":34.439819}},{"id":4085739,"name":"Reform","state":"AL","country":"US","coord":{"lon":-88.015297,"lat":33.378448}},{"id":4085771,"name":"Rehobeth","state":"AL","country":"US","coord":{"lon":-85.452713,"lat":31.122959}},{"id":4086183,"name":"River Park","state":"AL","country":"US","coord":{"lon":-87.811928,"lat":30.45075}},{"id":4086224,"name":"Riverside","state":"AL","country":"US","coord":{"lon":-86.204422,"lat":33.606209}},{"id":4086285,"name":"Roanoke","state":"AL","country":"US","coord":{"lon":-85.372169,"lat":33.15123}},{"id":4086363,"name":"Robertsdale","state":"AL","country":"US","coord":{"lon":-87.711929,"lat":30.553801}},{"id":4086500,"name":"Rock Creek","state":"AL","country":"US","coord":{"lon":-87.080269,"lat":33.477051}},{"id":4086637,"name":"Rockford","state":"AL","country":"US","coord":{"lon":-86.219688,"lat":32.889568}},{"id":4086921,"name":"Rogersville","state":"AL","country":"US","coord":{"lon":-87.294739,"lat":34.825642}},{"id":4087313,"name":"Russellville","state":"AL","country":"US","coord":{"lon":-87.728638,"lat":34.50787}},{"id":4087481,"name":"Saint Clair County","state":"AL","country":"US","coord":{"lon":-86.31665,"lat":33.750381}},{"id":4088146,"name":"Saks","state":"AL","country":"US","coord":{"lon":-85.839691,"lat":33.698711}},{"id":4088360,"name":"Samson","state":"AL","country":"US","coord":{"lon":-86.046051,"lat":31.112949}},{"id":4088404,"name":"Sand Hill","state":"AL","country":"US","coord":{"lon":-85.500778,"lat":32.541801}},{"id":4088628,"name":"Saraland","state":"AL","country":"US","coord":{"lon":-88.070557,"lat":30.82074}},{"id":4088704,"name":"Sardis City","state":"AL","country":"US","coord":{"lon":-86.122749,"lat":34.174259}},{"id":4088737,"name":"Satsuma","state":"AL","country":"US","coord":{"lon":-88.056107,"lat":30.853239}},{"id":4088916,"name":"Scottsboro","state":"AL","country":"US","coord":{"lon":-86.034149,"lat":34.67231}},{"id":4089114,"name":"Selma","state":"AL","country":"US","coord":{"lon":-87.021103,"lat":32.40736}},{"id":4089186,"name":"Seven Hills","state":"AL","country":"US","coord":{"lon":-88.303062,"lat":30.654079}},{"id":4089536,"name":"Sheffield","state":"AL","country":"US","coord":{"lon":-87.698639,"lat":34.765091}},{"id":4089549,"name":"Shelby","state":"AL","country":"US","coord":{"lon":-86.584152,"lat":33.110401}},{"id":4089551,"name":"Shelby County","state":"AL","country":"US","coord":{"lon":-86.666649,"lat":33.266781}},{"id":4089600,"name":"Shelton Beach Estates","state":"AL","country":"US","coord":{"lon":-88.094452,"lat":30.81741}},{"id":4089642,"name":"Shepherd Hill","state":"AL","country":"US","coord":{"lon":-86.066353,"lat":32.185699}},{"id":4090043,"name":"Siberton","state":"AL","country":"US","coord":{"lon":-86.108307,"lat":33.988991}},{"id":4090470,"name":"Slocomb","state":"AL","country":"US","coord":{"lon":-85.594383,"lat":31.108231}},{"id":4090684,"name":"Smiths Station","state":"AL","country":"US","coord":{"lon":-85.098549,"lat":32.540138}},{"id":4090700,"name":"Smoke Rise","state":"AL","country":"US","coord":{"lon":-86.820267,"lat":33.891769}},{"id":4091058,"name":"Southside","state":"AL","country":"US","coord":{"lon":-86.022469,"lat":33.924541}},{"id":4091136,"name":"Spanish Fort","state":"AL","country":"US","coord":{"lon":-87.915268,"lat":30.67491}},{"id":4091542,"name":"Springville","state":"AL","country":"US","coord":{"lon":-86.471649,"lat":33.775101}},{"id":4091755,"name":"Steele","state":"AL","country":"US","coord":{"lon":-86.201637,"lat":33.939819}},{"id":4091859,"name":"Stevenson","state":"AL","country":"US","coord":{"lon":-85.839417,"lat":34.86869}},{"id":4091923,"name":"Stewartville","state":"AL","country":"US","coord":{"lon":-86.244423,"lat":33.079288}},{"id":4092267,"name":"Sulligent","state":"AL","country":"US","coord":{"lon":-88.134483,"lat":33.901772}},{"id":4092333,"name":"Sumiton","state":"AL","country":"US","coord":{"lon":-87.050003,"lat":33.755661}},{"id":4092386,"name":"Sumter County","state":"AL","country":"US","coord":{"lon":-88.200027,"lat":32.466801}},{"id":4092671,"name":"Sylacauga","state":"AL","country":"US","coord":{"lon":-86.25164,"lat":33.173168}},{"id":4092689,"name":"Sylvan Springs","state":"AL","country":"US","coord":{"lon":-87.014992,"lat":33.515659}},{"id":4092692,"name":"Sylvania","state":"AL","country":"US","coord":{"lon":-85.812469,"lat":34.562309}},{"id":4092788,"name":"Talladega","state":"AL","country":"US","coord":{"lon":-86.105797,"lat":33.43594}},{"id":4092795,"name":"Talladega County","state":"AL","country":"US","coord":{"lon":-86.183311,"lat":33.366779}},{"id":4092853,"name":"Tallassee","state":"AL","country":"US","coord":{"lon":-85.893288,"lat":32.535969}},{"id":4092970,"name":"Tarrant","state":"AL","country":"US","coord":{"lon":-86.772774,"lat":33.583439}},{"id":4093048,"name":"Taylor","state":"AL","country":"US","coord":{"lon":-85.468269,"lat":31.1649}},{"id":4093050,"name":"Taylor","state":"AL","country":"US","coord":{"lon":-86.233299,"lat":31.97543}},{"id":4093194,"name":"Ten Broeck","state":"AL","country":"US","coord":{"lon":-85.986923,"lat":34.41787}},{"id":4093399,"name":"Theodore","state":"AL","country":"US","coord":{"lon":-88.175278,"lat":30.547689}},{"id":4093488,"name":"Thomasville","state":"AL","country":"US","coord":{"lon":-87.73584,"lat":31.91349}},{"id":4093619,"name":"Thorsby","state":"AL","country":"US","coord":{"lon":-86.71582,"lat":32.91568}},{"id":4093753,"name":"Tillmans Corner","state":"AL","country":"US","coord":{"lon":-88.170837,"lat":30.590191}},{"id":4093897,"name":"Town Creek","state":"AL","country":"US","coord":{"lon":-87.406128,"lat":34.681198}},{"id":4094048,"name":"Trinity","state":"AL","country":"US","coord":{"lon":-87.088348,"lat":34.606758}},{"id":4094163,"name":"Troy","state":"AL","country":"US","coord":{"lon":-85.969948,"lat":31.808769}},{"id":4094212,"name":"Trussville","state":"AL","country":"US","coord":{"lon":-86.608879,"lat":33.619831}},{"id":4094277,"name":"Tulse","state":"AL","country":"US","coord":{"lon":-86.902771,"lat":33.24511}},{"id":4094455,"name":"Tuscaloosa","state":"AL","country":"US","coord":{"lon":-87.569168,"lat":33.209839}},{"id":4094463,"name":"Tuscaloosa County","state":"AL","country":"US","coord":{"lon":-87.500282,"lat":33.300121}},{"id":4094484,"name":"Tuscumbia","state":"AL","country":"US","coord":{"lon":-87.70253,"lat":34.731201}},{"id":4094490,"name":"Tuskegee","state":"AL","country":"US","coord":{"lon":-85.69162,"lat":32.42403}},{"id":4094975,"name":"Union Springs","state":"AL","country":"US","coord":{"lon":-85.714951,"lat":32.144321}},{"id":4094997,"name":"Uniontown","state":"AL","country":"US","coord":{"lon":-87.514168,"lat":32.449581}},{"id":4095186,"name":"Valley","state":"AL","country":"US","coord":{"lon":-85.17939,"lat":32.818741}},{"id":4095213,"name":"Valley Grande","state":"AL","country":"US","coord":{"lon":-86.987488,"lat":32.509022}},{"id":4095288,"name":"Vandiver","state":"AL","country":"US","coord":{"lon":-86.513321,"lat":33.470661}},{"id":4095294,"name":"Vance","state":"AL","country":"US","coord":{"lon":-87.233612,"lat":33.174278}},{"id":4095392,"name":"Vernon","state":"AL","country":"US","coord":{"lon":-88.108917,"lat":33.75705}},{"id":4095415,"name":"Vestavia Hills","state":"AL","country":"US","coord":{"lon":-86.787773,"lat":33.448719}},{"id":4095475,"name":"Vienna","state":"AL","country":"US","coord":{"lon":-88.191971,"lat":33.018742}},{"id":4095522,"name":"Vincent","state":"AL","country":"US","coord":{"lon":-86.411919,"lat":33.384548}},{"id":4096107,"name":"Walker County","state":"AL","country":"US","coord":{"lon":-87.300003,"lat":33.80011}},{"id":4096316,"name":"Ward Acres","state":"AL","country":"US","coord":{"lon":-85.398819,"lat":31.13796}},{"id":4096404,"name":"Warrior","state":"AL","country":"US","coord":{"lon":-86.809441,"lat":33.81427}},{"id":4096645,"name":"Weaver","state":"AL","country":"US","coord":{"lon":-85.811348,"lat":33.752048}},{"id":4096678,"name":"Webb","state":"AL","country":"US","coord":{"lon":-85.27327,"lat":31.26045}},{"id":4096712,"name":"Wedowee","state":"AL","country":"US","coord":{"lon":-85.48468,"lat":33.308998}},{"id":4096956,"name":"West Blocton","state":"AL","country":"US","coord":{"lon":-87.125,"lat":33.118172}},{"id":4097211,"name":"Westover","state":"AL","country":"US","coord":{"lon":-86.53582,"lat":33.349548}},{"id":4097257,"name":"Wetumpka","state":"AL","country":"US","coord":{"lon":-86.211906,"lat":32.543739}},{"id":4097588,"name":"Whitesboro","state":"AL","country":"US","coord":{"lon":-86.06942,"lat":34.163429}},{"id":4098110,"name":"Wilsonville","state":"AL","country":"US","coord":{"lon":-86.483589,"lat":33.23428}},{"id":4098161,"name":"Winfield","state":"AL","country":"US","coord":{"lon":-87.817253,"lat":33.928989}},{"id":4098518,"name":"Woodstock","state":"AL","country":"US","coord":{"lon":-87.150002,"lat":33.206779}},{"id":4098604,"name":"Wright Crossroads","state":"AL","country":"US","coord":{"lon":-85.469948,"lat":32.532909}},{"id":4098776,"name":"York","state":"AL","country":"US","coord":{"lon":-88.296417,"lat":32.486252}},{"id":4099141,"name":"Airport Village","state":"AR","country":"US","coord":{"lon":-91.195129,"lat":35.637859}},{"id":4099194,"name":"Alexander","state":"AR","country":"US","coord":{"lon":-92.441269,"lat":34.629539}},{"id":4099296,"name":"Alma","state":"AR","country":"US","coord":{"lon":-94.221878,"lat":35.477871}},{"id":4099647,"name":"Arkadelphia","state":"AR","country":"US","coord":{"lon":-93.05378,"lat":34.12093}},{"id":4099673,"name":"Arkansas City","state":"AR","country":"US","coord":{"lon":-91.206779,"lat":33.608719}},{"id":4099679,"name":"Arkansas County","state":"AR","country":"US","coord":{"lon":-91.400124,"lat":34.316769}},{"id":4099753,"name":"Arkansas","state":"AR","country":"US","coord":{"lon":-92.500443,"lat":34.75037}},{"id":4099837,"name":"Ash Flat","state":"AR","country":"US","coord":{"lon":-91.608482,"lat":36.223961}},{"id":4099852,"name":"Ashdown","state":"AR","country":"US","coord":{"lon":-94.13131,"lat":33.67429}},{"id":4099932,"name":"Atkins","state":"AR","country":"US","coord":{"lon":-92.936562,"lat":35.246471}},{"id":4099952,"name":"Augusta","state":"AR","country":"US","coord":{"lon":-91.36541,"lat":35.28231}},{"id":4099974,"name":"Austin","state":"AR","country":"US","coord":{"lon":-91.983757,"lat":34.998421}},{"id":4100170,"name":"Bald Knob","state":"AR","country":"US","coord":{"lon":-91.567909,"lat":35.309811}},{"id":4100265,"name":"Banner","state":"AR","country":"US","coord":{"lon":-91.831528,"lat":35.641739}},{"id":4100311,"name":"Barfield","state":"AR","country":"US","coord":{"lon":-89.76786,"lat":35.905071}},{"id":4100348,"name":"Barling","state":"AR","country":"US","coord":{"lon":-94.301598,"lat":35.325649}},{"id":4100525,"name":"Batesville","state":"AR","country":"US","coord":{"lon":-91.640968,"lat":35.769798}},{"id":4100581,"name":"Baxter County","state":"AR","country":"US","coord":{"lon":-92.366829,"lat":36.333401}},{"id":4100592,"name":"Bay","state":"AR","country":"US","coord":{"lon":-90.562332,"lat":35.742298}},{"id":4100984,"name":"Beebe","state":"AR","country":"US","coord":{"lon":-91.879593,"lat":35.070641}},{"id":4101114,"name":"Bella Vista","state":"AR","country":"US","coord":{"lon":-94.231598,"lat":36.42952}},{"id":4101115,"name":"Bella Vista","state":"","country":"US","coord":{"lon":-94.273262,"lat":36.481461}},{"id":4101241,"name":"Benton","state":"AR","country":"US","coord":{"lon":-92.58683,"lat":34.564541}},{"id":4101244,"name":"Benton County","state":"AR","country":"US","coord":{"lon":-94.333542,"lat":36.333408}},{"id":4101260,"name":"Bentonville","state":"AR","country":"US","coord":{"lon":-94.208817,"lat":36.372849}},{"id":4101309,"name":"Berryville","state":"AR","country":"US","coord":{"lon":-93.56797,"lat":36.364792}},{"id":4101456,"name":"Bethel Heights","state":"AR","country":"US","coord":{"lon":-94.129372,"lat":36.214241}},{"id":4102412,"name":"Blytheville","state":"AR","country":"US","coord":{"lon":-89.918983,"lat":35.927299}},{"id":4102581,"name":"Bono","state":"AR","country":"US","coord":{"lon":-90.80262,"lat":35.90868}},{"id":4102608,"name":"Boone County","state":"AR","country":"US","coord":{"lon":-93.154617,"lat":36.300072}},{"id":4102622,"name":"Booneville","state":"AR","country":"US","coord":{"lon":-93.921593,"lat":35.140091}},{"id":4103042,"name":"Brinkley","state":"AR","country":"US","coord":{"lon":-91.194572,"lat":34.887871}},{"id":4103117,"name":"Brookland","state":"AR","country":"US","coord":{"lon":-90.582047,"lat":35.90007}},{"id":4103448,"name":"Bryant","state":"AR","country":"US","coord":{"lon":-92.489052,"lat":34.595928}},{"id":4103678,"name":"Bull Shoals","state":"AR","country":"US","coord":{"lon":-92.581551,"lat":36.383961}},{"id":4103827,"name":"Burton","state":"AR","country":"US","coord":{"lon":-89.855637,"lat":35.92091}},{"id":4103957,"name":"Cabot","state":"AR","country":"US","coord":{"lon":-92.016533,"lat":34.974529}},{"id":4104031,"name":"Cairo","state":"AR","country":"US","coord":{"lon":-92.869881,"lat":33.220131}},{"id":4104078,"name":"Calico Rock","state":"AR","country":"US","coord":{"lon":-92.135986,"lat":36.119511}},{"id":4104172,"name":"Camark","state":"AR","country":"US","coord":{"lon":-92.76683,"lat":33.632332}},{"id":4104182,"name":"Camden","state":"AR","country":"US","coord":{"lon":-92.834328,"lat":33.58456}},{"id":4104566,"name":"Caraway","state":"AR","country":"US","coord":{"lon":-90.322319,"lat":35.758129}},{"id":4104602,"name":"Carlisle","state":"AR","country":"US","coord":{"lon":-91.746521,"lat":34.78315}},{"id":4104857,"name":"Cave City","state":"AR","country":"US","coord":{"lon":-91.54847,"lat":35.941738}},{"id":4104897,"name":"Cave Springs","state":"AR","country":"US","coord":{"lon":-94.231873,"lat":36.263409}},{"id":4105064,"name":"Cedarville","state":"AR","country":"US","coord":{"lon":-94.366882,"lat":35.569809}},{"id":4105168,"name":"Centerton","state":"AR","country":"US","coord":{"lon":-94.28521,"lat":36.359798}},{"id":4105377,"name":"Charleston","state":"AR","country":"US","coord":{"lon":-94.036324,"lat":35.297039}},{"id":4105435,"name":"Cherokee Village","state":"AR","country":"US","coord":{"lon":-91.515968,"lat":36.29784}},{"id":4105824,"name":"Clarendon","state":"AR","country":"US","coord":{"lon":-91.313744,"lat":34.69315}},{"id":4105838,"name":"Clark County","state":"AR","country":"US","coord":{"lon":-93.16684,"lat":34.050098}},{"id":4105879,"name":"Clarksville","state":"AR","country":"US","coord":{"lon":-93.466568,"lat":35.47147}},{"id":4105899,"name":"Clay County","state":"AR","country":"US","coord":{"lon":-90.383438,"lat":36.36673}},{"id":4106009,"name":"Cleburne County","state":"AR","country":"US","coord":{"lon":-92.016823,"lat":35.51675}},{"id":4106074,"name":"Clinton","state":"AR","country":"US","coord":{"lon":-92.460442,"lat":35.591469}},{"id":4106126,"name":"Coal Hill","state":"AR","country":"US","coord":{"lon":-93.672974,"lat":35.437309}},{"id":4106458,"name":"Conway","state":"AR","country":"US","coord":{"lon":-92.442101,"lat":35.088699}},{"id":4106689,"name":"Corning","state":"AR","country":"US","coord":{"lon":-90.579826,"lat":36.407841}},{"id":4106726,"name":"Cotton Belt","state":"AR","country":"US","coord":{"lon":-90.461769,"lat":36.093121}},{"id":4106979,"name":"Craighead County","state":"AR","country":"US","coord":{"lon":-90.650108,"lat":35.816738}},{"id":4107027,"name":"Crawford County","state":"AR","country":"US","coord":{"lon":-94.233543,"lat":35.58342}},{"id":4107079,"name":"Crittenden County","state":"AR","country":"US","coord":{"lon":-90.283432,"lat":35.233421}},{"id":4107198,"name":"Crossett","state":"AR","country":"US","coord":{"lon":-91.961243,"lat":33.128181}}]