[{"name":"!Rocks","difficulty":"Very Difficult / Black Diamond","distance":"342 m","descent":"14 m","climb":"14 m","area":"Lester Park","latitude":"46.849690","longitude":"-92.010790","city":"Duluth","region":"MN","country":""},{"name":"\"1:04\" Track","difficulty":"Intermediate / Blue Square","distance":"715 m","descent":"1 m","climb":"1 m","area":"Beaver Brook North","latitude":"42.400150","longitude":"-71.209360","city":"Belmont","region":"MA","country":""},{"name":"\"A\" Minus","difficulty":"Intermediate / Blue Square","distance":"882 m","descent":"162 m","climb":"162 m","area":"Anaconda Hills","latitude":"46.122720","longitude":"-112.963020","city":"Anaconda","region":"MT","country":""},{"name":"\"A\" Single trail","difficulty":"Intermediate / Blue Square","distance":"271 m","descent":false,"climb":false,"area":"Anaconda Hills","latitude":"46.124850","longitude":"-112.967930","city":"Anaconda","region":"MT","country":""},{"name":"\"A\" Trail T119","difficulty":"Very Difficult / Black Diamond","distance":"7.8 km","descent":"96 m","climb":"96 m","area":"Alamogordo","latitude":"32.882590","longitude":"-105.858030","city":"Alamogordo","region":"NM","country":""},{"name":"\"BB\"","difficulty":"Intermediate / Blue Square","distance":"72 m","descent":"7 m","climb":"7 m","area":"Vietnam Trail Network","latitude":"42.163390","longitude":"-71.490750","city":"Milford","region":"MA","country":""},{"name":"\"C\" Minus","difficulty":"Intermediate / Blue Square","distance":"1.5 km","descent":"122 m","climb":"122 m","area":"Anaconda Hills","latitude":"46.120420","longitude":"-112.952590","city":"Anaconda","region":"MT","country":""},{"name":"\"C\" Plus","difficulty":"Very Difficult / Black Diamond","distance":"2.3 km","descent":false,"climb":false,"area":"Anaconda Hills","latitude":"46.101510","longitude":"-112.949990","city":"Anaconda","region":"MT","country":""},{"name":"\"C\" Summit Single Track","difficulty":"Very Difficult / Black Diamond","distance":"3.9 km","descent":"212 m","climb":"212 m","area":"Anaconda Hills","latitude":"46.109820","longitude":"-112.950600","city":"Anaconda","region":"MT","country":""},{"name":"\"Cliffhanger ConnectOr\"","difficulty":"Intermediate / Blue Square","distance":"543 m","descent":false,"climb":false,"area":"P-12 (Rancho, aka Antelope Valley Trails)","latitude":"34.599760","longitude":"-118.206880","city":"Palmdale","region":"CA","country":""},{"name":"\"Elephant Rock\" White Tank Mountain Regional area","difficulty":"Intermediate / Blue Square","distance":"7.5 km","descent":"91 m","climb":"91 m","area":"Buckeye","latitude":"33.658870","longitude":"-112.634270","city":"Buckeye","region":"AZ","country":""},{"name":"\"G\" Spot","difficulty":"Intermediate / Blue Square","distance":"860 m","descent":"24 m","climb":"24 m","area":"Willowdale State Forest","latitude":"42.669050","longitude":"-70.908620","city":"Ipswich","region":"MA","country":""},{"name":"\"High 5\"","difficulty":"Easy / Green Circle","distance":"541 m","descent":"14 m","climb":"14 m","area":"Comlara Park","latitude":"40.639930","longitude":"-89.055360","city":"Bloomington","region":"IL","country":""},{"name":"\"J\" Trail","difficulty":"Intermediate / Blue Square","distance":"981 m","descent":"273 m","climb":"273 m","area":"Shindagin Hollow State Forest","latitude":"42.336380","longitude":"-76.351730","city":"Ithaca","region":"NY","country":""},{"name":"\"K\" Trail","difficulty":"Very Difficult / Black Diamond","distance":"509 m","descent":"1 m","climb":"1 m","area":"Cathedral Hills","latitude":"42.399840","longitude":"-123.331590","city":"Grants Pass","region":"OR","country":""},{"name":"\"KC\" Keswick Crusher","difficulty":"Very Difficult / Black Diamond","distance":"931 m","descent":"16 m","climb":"16 m","area":"Keswick","latitude":"40.603550","longitude":"-122.451610","city":"Redding","region":"CA","country":""},{"name":"\"No Go\"","difficulty":"Extremely Difficult / Dbl Black Diamond","distance":"3.0 km","descent":"44 m","climb":"44 m","area":"Santa Fe","latitude":"35.663420","longitude":"-105.877310","city":"Santa Fe","region":"NM","country":""},{"name":"\"O Cliffhanger\" East","difficulty":"Easy / Green Circle","distance":"3.6 km","descent":"70 m","climb":"70 m","area":"P-12 (Rancho, aka Antelope Valley Trails)","latitude":"34.596080","longitude":"-118.209730","city":"Palmdale","region":"CA","country":""},{"name":"Oh eah !!!","difficulty":"Very Difficult / Black Diamond","distance":"1.4 km","descent":"3 m","climb":"3 m","area":"P-12 (Rancho, aka Antelope Valley Trails)","latitude":"34.609660","longitude":"-118.223590","city":"Palmdale","region":"CA","country":""},{"name":"\"O\" Trail","difficulty":"Very Difficult / Black Diamond","distance":"3.1 km","descent":"65 m","climb":"65 m","area":"Bradbury Mountain State Park","latitude":"43.897830","longitude":"-70.176980","city":"Pownal","region":"ME","country":""},{"name":"\"P\" Trail","difficulty":"Very Difficult / Black Diamond","distance":"1.5 km","descent":"11 m","climb":"11 m","area":"Green Gates","latitude":"48.420540","longitude":"-113.976100","city":"Columbia Falls","region":"MT","country":""},{"name":"\"Private Path\"","difficulty":"Easy / Green Circle","distance":"185 m","descent":"1 m","climb":"1 m","area":"Wrentham State Forest & Conservation Lands","latitude":"42.052500","longitude":"-71.333420","city":"Wrentham","region":"MA","country":""},{"name":"\"RevOlution\"","difficulty":"Intermediate / Blue Square","distance":"747 m","descent":"2 m","climb":"2 m","area":"P-12 (Rancho, aka Antelope Valley Trails)","latitude":"34.604190","longitude":"-118.217300","city":"Palmdale","region":"CA","country":""},{"name":"\"S\" Gulch","difficulty":"Intermediate / Blue Square","distance":"1.1 km","descent":"12 m","climb":"12 m","area":"Landfill","latitude":"45.148290","longitude":"-113.865040","city":"Salmon","region":"ID","country":""},{"name":"\"Secret\" Entrance","difficulty":"Easy / Green Circle","distance":"67 m","descent":"1 m","climb":"1 m","area":"Freetown-Fall River SF / SEMASS Bioreserve Trails","latitude":"41.763930","longitude":"-71.094510","city":"Freetown","region":"MA","country":""},{"name":"\"THE\" Golden Trail","difficulty":"Intermediate / Blue Square","distance":"1.1 km","descent":"28 m","climb":"28 m","area":"Hackettstown","latitude":"40.887830","longitude":"-74.774500","city":"Hackettstown","region":"NJ","country":""},{"name":"\"Up and Over N&S\"","difficulty":"Intermediate / Blue Square","distance":"173 m","descent":"2 m","climb":"2 m","area":"Collis P Huntington State Park","latitude":"41.345740","longitude":"-73.359480","city":"Redding","region":"CT","country":""},{"name":"\"W\" Trail","difficulty":"Intermediate / Blue Square","distance":"1.3 km","descent":"90 m","climb":"90 m","area":"Cathedral Hills","latitude":"42.393710","longitude":"-123.328900","city":"Grants Pass","region":"OR","country":""},{"name":"\"Woo\" Cave Trail","difficulty":"Easy / Green Circle","distance":"157 m","descent":"8 m","climb":"8 m","area":"Rattlesnake Hill","latitude":"42.437550","longitude":"-71.571900","city":"Bolton","region":"MA","country":""},{"name":null,"difficulty":"Easy / Green Circle","distance":"29.8 km","descent":"1,363 m","climb":"1,363 m","area":"BLM Chappie - Shasta OHV","latitude":"40.718110","longitude":"-122.430180","city":"Redding","region":"CA","country":""},{"name":"#1","difficulty":"Easy / Green Circle","distance":"1.1 km","descent":"18 m","climb":"18 m","area":"Northhampton Park","latitude":"43.190790","longitude":"-77.897080","city":"Rochester","region":"NY","country":""},{"name":"#1 - #2 Norway Ridge Pathway","difficulty":"Easy / Green Circle","distance":"479 m","descent":false,"climb":false,"area":"Norway Ridge Pathway","latitude":"45.022710","longitude":"-83.514500","city":"Alpena","region":"MI","country":""},{"name":"#1 - #3 Norway Ridge Pathway","difficulty":"Easy / Green Circle","distance":"330 m","descent":false,"climb":false,"area":"Norway Ridge Pathway","latitude":"45.023360","longitude":"-83.518300","city":"Alpena","region":"MI","country":""},{"name":"#1 Advanced Flow Trail","difficulty":"Very Difficult / Black Diamond","distance":"295 m","descent":false,"climb":false,"area":"100-Acre Wood Bike Park","latitude":"32.195710","longitude":"-110.897640","city":"Tucson","region":"AZ","country":""},{"name":"#1 Natalie","difficulty":"Intermediate / Blue Square","distance":"953 m","descent":"15 m","climb":"15 m","area":"Roaring Creek","latitude":"40.821380","longitude":"-76.460060","city":"Shamokin","region":"PA","country":""},{"name":"#1 Natalie (East)","difficulty":"Very Difficult / Black Diamond","distance":"1.3 km","descent":false,"climb":false,"area":"Roaring Creek","latitude":"40.821380","longitude":"-76.460060","city":"Shamokin","region":"PA","country":""},{"name":"#1 Natalie (West)","difficulty":"Very Difficult / Black Diamond","distance":"717 m","descent":"1 m","climb":"1 m","area":"Roaring Creek","latitude":"40.820720","longitude":"-76.465500","city":"Shamokin","region":"PA","country":""},{"name":"#10 - #11 Norway Ridge Pathway","difficulty":"Easy / Green Circle","distance":"1.1 km","descent":"10 m","climb":"10 m","area":"Norway Ridge Pathway","latitude":"45.039910","longitude":"-83.503620","city":"Alpena","region":"MI","country":""},{"name":"#10 - #12 Norway Ridge Pathway","difficulty":"Easy / Green Circle","distance":"338 m","descent":false,"climb":false,"area":"Norway Ridge Pathway","latitude":"45.039910","longitude":"-83.503620","city":"Alpena","region":"MI","country":""},{"name":"#10 Advanced Downhill Tech Line","difficulty":"Very Difficult / Black Diamond","distance":"84 m","descent":false,"climb":false,"area":"Minturn Bike Park","latitude":"39.580300","longitude":"-106.415670","city":"Minturn","region":"CO","country":""},{"name":"#10 Mine Trail","difficulty":"Easy / Green Circle","distance":"264 m","descent":"26 m","climb":"26 m","area":"Red Mountain Park","latitude":"33.437410","longitude":"-86.885160","city":"Birmingham","region":"AL","country":""},{"name":"#10 Ridge Run / #12 Zig Zag Connector","difficulty":"Intermediate / Blue Square","distance":"241 m","descent":false,"climb":false,"area":"Hartwood Acres","latitude":"40.562210","longitude":"-79.914240","city":"Allison Park","region":"PA","country":""},{"name":"#10 Rough Rider","difficulty":"Intermediate / Blue Square","distance":"546 m","descent":"11 m","climb":"11 m","area":"7th Cavalry Trail System","latitude":"44.399660","longitude":"-103.478300","city":"Sturgis","region":"SD","country":""},{"name":"#10 Trail","difficulty":"Very Difficult / Black Diamond","distance":"1.4 km","descent":"51 m","climb":"51 m","area":"William Landahl Park","latitude":"39.067070","longitude":"-94.244640","city":"Buckner","region":"MO","country":""},{"name":"#11 - #12 Norway Ridge Pathway","difficulty":"Easy / Green Circle","distance":"1.1 km","descent":"4 m","climb":"4 m","area":"Norway Ridge Pathway","latitude":"45.041440","longitude":"-83.504440","city":"Alpena","region":"MI","country":""},{"name":"#11 Buffalo Soldier","difficulty":"Intermediate / Blue Square","distance":"1.2 km","descent":"9 m","climb":"9 m","area":"7th Cavalry Trail System","latitude":"44.398780","longitude":"-103.465170","city":"Sturgis","region":"SD","country":""},{"name":"#11 Intm/Adv Tech Flow Line","difficulty":"Very Difficult / Black Diamond","distance":"155 m","descent":false,"climb":false,"area":"Minturn Bike Park","latitude":"39.580930","longitude":"-106.417040","city":"Minturn","region":"CO","country":""},{"name":"#11 Trail","difficulty":"Very Difficult / Black Diamond","distance":"1.5 km","descent":"68 m","climb":"68 m","area":"Blue Springs","latitude":"39.071770","longitude":"-94.249690","city":"Blue Springs","region":"MO","country":""},{"name":"#12 - #13","difficulty":"Intermediate / Blue Square","distance":"363 m","descent":"4 m","climb":"4 m","area":"Hooper Road Park","latitude":"30.534220","longitude":"-91.117350","city":"Baton Rouge","region":"LA","country":""},{"name":"#12 - #9 Norway Ridge Pathway","difficulty":"Easy / Green Circle","distance":"2.0 km","descent":"10 m","climb":"10 m","area":"Norway Ridge Pathway","latitude":"45.041440","longitude":"-83.504440","city":"Alpena","region":"MI","country":""},{"name":"#12 Dual Slalom Flow Line","difficulty":"Intermediate / Blue Square","distance":"337 m","descent":false,"climb":false,"area":"Minturn Bike Park","latitude":"39.580930","longitude":"-106.417040","city":"Minturn","region":"CO","country":""}]